[
  {
    "NAME": "E73",
    "ADDRESS": "8630 S EMERALD AVE",
    "CITY": "CHICAGO",
    "STATE": "IL",
    "ZIP": 60620,
    "ENGINE": "E73",
    "LOCATION": "8630 S EMERALD AVE\nCHICAGO, IL 60620\n(41.73693577387957, -87.64245532798658)",
    "STAFF": 38,
    "Men": 32,
    "Women": 5
  },
  {
    "NAME": "E4",
    "ADDRESS": "548 W DIVISION ST",
    "CITY": "CHICAGO",
    "STATE": "IL",
    "ZIP": 60610,
    "ENGINE": "E4",
    "LOCATION": "548 W DIVISION ST\nCHICAGO, IL 60610\n(41.903989978859165, -87.64291470278913)",
    "STAFF": 43,
    "Men": 36,
    "Women": 6
  },
  {
    "NAME": "E64",
    "ADDRESS": "7659 S PULASKI RD",
    "CITY": "CHICAGO",
    "STATE": "IL",
    "ZIP": 60652,
    "ENGINE": "E64",
    "LOCATION": "7659 S PULASKI RD\nCHICAGO, IL 60652\n(41.75300608968367, -87.72192154895255)",
    "STAFF": 35,
    "Men": 29,
    "Women": 5
  },
  {
    "NAME": "E43",
    "ADDRESS": "2179 N STAVE ST",
    "CITY": "CHICAGO",
    "STATE": "IL",
    "ZIP": 60647,
    "ENGINE": "E43",
    "LOCATION": "2179 N STAVE ST\nCHICAGO, IL 60647\n(41.92093320589118, -87.69644234997307)",
    "STAFF": 36,
    "Men": 30,
    "Women": 5
  },
  {
    "NAME": "E70/E59",
    "ADDRESS": "6030 N CLARK ST",
    "CITY": "CHICAGO",
    "STATE": "IL",
    "ZIP": 60660,
    "ENGINE": "E70/59",
    "LOCATION": "6030 N CLARK ST\nCHICAGO, IL 60660\n(41.99185705844965, -87.6702338230154)",
    "STAFF": 54,
    "Men": 45,
    "Women": 8
  },
  {
    "NAME": "E71",
    "ADDRESS": "6239 N CALIFORNIA AVE",
    "CITY": "CHICAGO",
    "STATE": "IL",
    "ZIP": 60659,
    "ENGINE": "E71",
    "LOCATION": "6239 N CALIFORNIA AVE\nCHICAGO, IL 60659\n(41.99514651466264, -87.69953001132356)",
    "STAFF": 32,
    "Men": 27,
    "Women": 4
  },
  {
    "NAME": "E124",
    "ADDRESS": "4426 N KEDZIE AVE",
    "CITY": "CHICAGO",
    "STATE": "IL",
    "ZIP": 60625,
    "ENGINE": "E124",
    "LOCATION": "4426 N KEDZIE AVE\nCHICAGO, IL 60625\n(41.961690670919346, -87.7082930624585)",
    "STAFF": 31,
    "Men": 26,
    "Women": 4
  },
  {
    "NAME": "E69",
    "ADDRESS": "4017 N TRIPP AVE",
    "CITY": "CHICAGO",
    "STATE": "IL",
    "ZIP": 60641,
    "ENGINE": "E69",
    "LOCATION": "4017 N TRIPP AVE\nCHICAGO, IL 60641\n(41.953786251061175, -87.7339286805089)",
    "STAFF": 34,
    "Men": 28,
    "Women": 5
  },
  {
    "NAME": "E22",
    "ADDRESS": "605 W ARMITAGE AVE",
    "CITY": "CHICAGO",
    "STATE": "IL",
    "ZIP": 60614,
    "ENGINE": "E22",
    "LOCATION": "605 W ARMITAGE AVE\nCHICAGO, IL 60614\n(41.91792047709303, -87.64396690956342)",
    "STAFF": 33,
    "Men": 28,
    "Women": 4
  },
  {
    "NAME": "E103",
    "ADDRESS": "25 S LAFLIN ST",
    "CITY": "CHICAGO",
    "STATE": "IL",
    "ZIP": 60607,
    "ENGINE": "E103",
    "LOCATION": "25 S LAFLIN ST\nCHICAGO, IL 60607\n(41.880715524740886, -87.66412071624002)",
    "STAFF": 35,
    "Men": 29,
    "Women": 5
  },
  {
    "NAME": "E108",
    "ADDRESS": "4625 N MILWAUKEE AVE",
    "CITY": "CHICAGO",
    "STATE": "IL",
    "ZIP": 60630,
    "ENGINE": "E108",
    "LOCATION": "4625 N MILWAUKEE AVE\nCHICAGO, IL 60630\n(41.964650420624565, -87.75785762001762)",
    "STAFF": 34,
    "Men": 28,
    "Women": 5
  },
  {
    "NAME": "E19",
    "ADDRESS": "3421 S CALUMET AVE",
    "CITY": "CHICAGO",
    "STATE": "IL",
    "ZIP": 60616,
    "ENGINE": "E19",
    "LOCATION": "3421 S CALUMET AVE\nCHICAGO, IL 60616\n(41.83227804024279, -87.61779663851078)",
    "STAFF": 49,
    "Men": 41,
    "Women": 7
  },
  {
    "NAME": "E113",
    "ADDRESS": "5212 W HARRISON ST",
    "CITY": "CHICAGO",
    "STATE": "IL",
    "ZIP": 60644,
    "ENGINE": "E113",
    "LOCATION": "5212 W HARRISON ST\nCHICAGO, IL 60644\n(41.872982656337946, -87.75506878145924)",
    "STAFF": 45,
    "Men": 38,
    "Women": 6
  },
  {
    "NAME": "E78",
    "ADDRESS": "1052 W WAVELAND AVE",
    "CITY": "CHICAGO",
    "STATE": "IL",
    "ZIP": 60613,
    "ENGINE": "E78",
    "LOCATION": "1052 W WAVELAND AVE\nCHICAGO, IL 60613\n(41.94920789049237, -87.65640453322862)",
    "STAFF": 43,
    "Men": 36,
    "Women": 6
  },
  {
    "NAME": "E117",
    "ADDRESS": "4900 W CHICAGO AVE",
    "CITY": "CHICAGO",
    "STATE": "IL",
    "ZIP": 60651,
    "ENGINE": "E117",
    "LOCATION": "4900 W CHICAGO AVE\nCHICAGO, IL 60651\n(41.895036609573054, -87.74827707033056)",
    "STAFF": 43,
    "Men": 36,
    "Women": 6
  },
  {
    "NAME": "E109",
    "ADDRESS": "2358 S WHIPPLE ST",
    "CITY": "CHICAGO",
    "STATE": "IL",
    "ZIP": 60623,
    "ENGINE": "E109",
    "LOCATION": "2358 S WHIPPLE ST\nCHICAGO, IL 60623\n(41.84833993168608, -87.70181130248798)",
    "STAFF": 44,
    "Men": 37,
    "Women": 6
  },
  {
    "NAME": "E125",
    "ADDRESS": "2323 N NATCHEZ AVE",
    "CITY": "CHICAGO",
    "STATE": "IL",
    "ZIP": 60707,
    "ENGINE": "E125",
    "LOCATION": "2323 N NATCHEZ AVE\nCHICAGO, IL 60707\n(41.92208525379962, -87.78775414416)",
    "STAFF": 49,
    "Men": 41,
    "Women": 7
  },
  {
    "NAME": "E35",
    "ADDRESS": "1901 N DAMEN AVE",
    "CITY": "CHICAGO",
    "STATE": "IL",
    "ZIP": 60647,
    "ENGINE": "E35",
    "LOCATION": "1901 N DAMEN AVE\nCHICAGO, IL 60647\n(41.91622975167794, -87.67720585176635)",
    "STAFF": 46,
    "Men": 39,
    "Women": 6
  },
  {
    "NAME": "E46",
    "ADDRESS": "3027 E 93RD ST",
    "CITY": "CHICAGO",
    "STATE": "IL",
    "ZIP": 60617,
    "ENGINE": "E46",
    "LOCATION": "3027 E 93RD ST\nCHICAGO, IL 60617\n(41.72641224082973, -87.55007769314022)",
    "STAFF": 43,
    "Men": 36,
    "Women": 6
  },
  {
    "NAME": "E47",
    "ADDRESS": "432 E MARQUETTE RD",
    "CITY": "CHICAGO",
    "STATE": "IL",
    "ZIP": 60637,
    "ENGINE": "E47",
    "LOCATION": "432 E MARQUETTE RD\nCHICAGO, IL 60637\n(41.77300015277593, -87.6141755209756)",
    "STAFF": 42,
    "Men": 35,
    "Women": 6
  },
  {
    "NAME": "E112",
    "ADDRESS": "3801 N DAMEN AVE",
    "CITY": "CHICAGO",
    "STATE": "IL",
    "ZIP": 60618,
    "ENGINE": "E112",
    "LOCATION": "3801 N DAMEN AVE\nCHICAGO, IL 60618\n(41.95075472438277, -87.67830302464209)",
    "STAFF": 36,
    "Men": 30,
    "Women": 5
  },
  {
    "NAME": "E38",
    "ADDRESS": "3949 W 16TH ST",
    "CITY": "CHICAGO",
    "STATE": "IL",
    "ZIP": 60623,
    "ENGINE": "E38",
    "LOCATION": "3949 W 16TH ST\nCHICAGO, IL 60623\n(41.85850227061717, -87.7242763667799)",
    "STAFF": 37,
    "Men": 31,
    "Women": 5
  },
  {
    "NAME": "E75",
    "ADDRESS": "11958 S STATE ST",
    "CITY": "CHICAGO",
    "STATE": "IL",
    "ZIP": 60628,
    "ENGINE": "E75",
    "LOCATION": "11958 S STATE ST\nCHICAGO, IL 60628\n(41.67673026792751, -87.62265939976201)",
    "STAFF": 37,
    "Men": 31,
    "Women": 5
  },
  {
    "NAME": "E81",
    "ADDRESS": "10458 S HOXIE AVE",
    "CITY": "CHICAGO",
    "STATE": "IL",
    "ZIP": 60617,
    "ENGINE": "E81",
    "LOCATION": "10458 S HOXIE AVE\nCHICAGO, IL 60617\n(41.705334319654064, -87.56088524816063)",
    "STAFF": 39,
    "Men": 33,
    "Women": 5
  },
  {
    "NAME": "E106",
    "ADDRESS": "3401 N ELSTON AVE",
    "CITY": "CHICAGO",
    "STATE": "IL",
    "ZIP": 60618,
    "ENGINE": "E106",
    "LOCATION": "3401 N ELSTON AVE\nCHICAGO, IL 60618\n(41.943065521032246, -87.7032142448537)",
    "STAFF": 35,
    "Men": 29,
    "Women": 5
  },
  {
    "NAME": "E1",
    "ADDRESS": "419 S WELLS ST",
    "CITY": "CHICAGO",
    "STATE": "IL",
    "ZIP": 60607,
    "ENGINE": "E1",
    "LOCATION": "419 S WELLS ST\nCHICAGO, IL 60607\n(41.87604804340882, -87.63333692317708)",
    "STAFF": 34,
    "Men": 28,
    "Women": 5
  },
  {
    "NAME": "E5",
    "ADDRESS": "324 S DESPLAINES ST",
    "CITY": "CHICAGO",
    "STATE": "IL",
    "ZIP": 60661,
    "ENGINE": "E5",
    "LOCATION": "324 S DESPLAINES ST\nCHICAGO, IL 60661\n(41.877028304420755, -87.64430865193455)",
    "STAFF": 35,
    "Men": 29,
    "Women": 5
  },
  {
    "NAME": "E55",
    "ADDRESS": "2718 N HALSTED ST",
    "CITY": "CHICAGO",
    "STATE": "IL",
    "ZIP": 60614,
    "ENGINE": "E55",
    "LOCATION": "2718 N HALSTED ST\nCHICAGO, IL 60614\n(41.93179744380986, -87.64899361595215)",
    "STAFF": 37,
    "Men": 31,
    "Women": 5
  },
  {
    "NAME": "E86",
    "ADDRESS": "3918 N HARLEM AVE",
    "CITY": "CHICAGO",
    "STATE": "IL",
    "ZIP": 60634,
    "ENGINE": "E86",
    "LOCATION": "3918 N HARLEM AVE\nCHICAGO, IL 60634\n(41.95114251165066, -87.80721934061404)",
    "STAFF": 32,
    "Men": 27,
    "Women": 4
  },
  {
    "NAME": "E95",
    "ADDRESS": "4003 W WEST END AVE",
    "CITY": "CHICAGO",
    "STATE": "IL",
    "ZIP": 60624,
    "ENGINE": "E95",
    "LOCATION": "4003 W WEST END AVE\nCHICAGO, IL 60624\n(41.88334382548296, -87.72576410502936)",
    "STAFF": 32,
    "Men": 27,
    "Women": 4
  },
  {
    "NAME": "E92",
    "ADDRESS": "3112 W 111TH ST",
    "CITY": "CHICAGO",
    "STATE": "IL",
    "ZIP": 60655,
    "ENGINE": "E92",
    "LOCATION": "3112 W 111TH ST\nCHICAGO, IL 60655\n(41.6916111688133, -87.69891865020873)",
    "STAFF": 31,
    "Men": 26,
    "Women": 4
  },
  {
    "NAME": "E99",
    "ADDRESS": "3042 S KEDVALE AVE",
    "CITY": "CHICAGO",
    "STATE": "IL",
    "ZIP": 60623,
    "ENGINE": "E99",
    "LOCATION": "3042 S KEDVALE AVE\nCHICAGO, IL 60623\n(41.837386198391975, -87.72806083645415)",
    "STAFF": 37,
    "Men": 31,
    "Women": 5
  },
  {
    "NAME": "E84",
    "ADDRESS": "21 W 59TH ST",
    "CITY": "CHICAGO",
    "STATE": "IL",
    "ZIP": 60621,
    "ENGINE": "E84",
    "LOCATION": "21 W 59TH ST\nCHICAGO, IL 60621\n(41.786898250644306, -87.62642113677177)",
    "STAFF": 46,
    "Men": 39,
    "Women": 6
  },
  {
    "NAME": "E15",
    "ADDRESS": "8026 S KEDZIE AVE",
    "CITY": "CHICAGO",
    "STATE": "IL",
    "ZIP": 60652,
    "ENGINE": "E15",
    "LOCATION": "8026 S KEDZIE AVE\nCHICAGO, IL 60652\n(41.74747486194539, -87.70238006254415)",
    "STAFF": 45,
    "Men": 38,
    "Women": 6
  },
  {
    "NAME": "E120",
    "ADDRESS": "11035 S HOMEWOOD AVE",
    "CITY": "CHICAGO",
    "STATE": "IL",
    "ZIP": 60643,
    "ENGINE": "E120",
    "LOCATION": "11035 S HOMEWOOD AVE\nCHICAGO, IL 60643\n(41.693205775399605, -87.66882538049862)",
    "STAFF": 47,
    "Men": 39,
    "Women": 7
  },
  {
    "NAME": "E62",
    "ADDRESS": "34 E 114TH ST",
    "CITY": "CHICAGO",
    "STATE": "IL",
    "ZIP": 60628,
    "ENGINE": "E62",
    "LOCATION": "34 E 114TH ST\nCHICAGO, IL 60628\n(41.68740625454284, -87.62413685881735)",
    "STAFF": 48,
    "Men": 40,
    "Women": 7
  },
  {
    "NAME": "E91",
    "ADDRESS": "2827 N PULASKI RD",
    "CITY": "CHICAGO",
    "STATE": "IL",
    "ZIP": 60641,
    "ENGINE": "E91",
    "LOCATION": "2827 N PULASKI RD\nCHICAGO, IL 60641\n(41.93223675592729, -87.72695711402253)",
    "STAFF": 18,
    "Men": 15,
    "Women": 2
  },
  {
    "NAME": "E16",
    "ADDRESS": "4005 S DEARBORN ST",
    "CITY": "CHICAGO",
    "STATE": "IL",
    "ZIP": 60609,
    "ENGINE": "E16",
    "LOCATION": "4005 S DEARBORN ST\nCHICAGO, IL 60609\n(41.821900941759, -87.62749769240351)",
    "STAFF": 45,
    "Men": 38,
    "Women": 6
  },
  {
    "NAME": "E97",
    "ADDRESS": "13359 S BURLEY AVE",
    "CITY": "CHICAGO",
    "STATE": "IL",
    "ZIP": 60633,
    "ENGINE": "E97",
    "LOCATION": "13359 S BURLEY AVE\nCHICAGO, IL 60633\n(41.652591152628624, -87.54470437664087)",
    "STAFF": 77,
    "Men": 65,
    "Women": 11
  },
  {
    "NAME": "E13",
    "ADDRESS": "259 N COLUMBUS DR",
    "CITY": "CHICAGO",
    "STATE": "IL",
    "ZIP": 60601,
    "ENGINE": "E13",
    "LOCATION": "259 N COLUMBUS DR\nCHICAGO, IL 60601\n(41.88646360558985, -87.62061359066273)",
    "STAFF": 43,
    "Men": 36,
    "Women": 6
  },
  {
    "NAME": "E79",
    "ADDRESS": "6424 N LEHIGH AVE",
    "CITY": "CHICAGO",
    "STATE": "IL",
    "ZIP": 60646,
    "ENGINE": "E79",
    "LOCATION": "6424 N LEHIGH AVE\nCHICAGO, IL 60646\n(41.997974799017584, -87.76616159362811)",
    "STAFF": 45,
    "Men": 38,
    "Women": 6
  },
  {
    "NAME": "E88",
    "ADDRESS": "3637 W 59TH ST",
    "CITY": "CHICAGO",
    "STATE": "IL",
    "ZIP": 60629,
    "ENGINE": "E88",
    "LOCATION": "3637 W 59TH ST\nCHICAGO, IL 60629\n(41.785702152345344, -87.71468959394757)",
    "STAFF": 43,
    "Men": 36,
    "Women": 6
  },
  {
    "NAME": "E18",
    "ADDRESS": "1360 N BLUE ISLAND AVE",
    "CITY": "CHICAGO",
    "STATE": "IL",
    "ZIP": 60608,
    "ENGINE": "E18",
    "LOCATION": "1360 N BLUE ISLAND AVE\nCHICAGO, IL 60608\n(41.864503979120165, -87.65556796459875)",
    "STAFF": 96,
    "Men": 81,
    "Women": 14
  },
  {
    "NAME": "E82",
    "ADDRESS": "817 E 91ST ST",
    "CITY": "CHICAGO",
    "STATE": "IL",
    "ZIP": 60619,
    "ENGINE": "E82",
    "LOCATION": "817 E 91ST ST\nCHICAGO, IL 60619\n(41.72933327959225, -87.60425730151255)",
    "STAFF": 65,
    "Men": 55,
    "Women": 9
  },
  {
    "NAME": "E115",
    "ADDRESS": "11940 S PEORIA ST",
    "CITY": "CHICAGO",
    "STATE": "IL",
    "ZIP": 60643,
    "ENGINE": "E115",
    "LOCATION": "11940 S PEORIA ST\nCHICAGO, IL 60643\n(41.676767520058746, -87.64436386377967)",
    "STAFF": 55,
    "Men": 46,
    "Women": 8
  },
  {
    "NAME": "E49",
    "ADDRESS": "4401 S ASHLAND AVE",
    "CITY": "CHICAGO",
    "STATE": "IL",
    "ZIP": 60609,
    "ENGINE": "E49",
    "LOCATION": "4401 S ASHLAND AVE\nCHICAGO, IL 60609\n(41.81404218586455, -87.66497197801137)",
    "STAFF": 57,
    "Men": 48,
    "Women": 8
  },
  {
    "NAME": "E102",
    "ADDRESS": "7340 N CLARK ST",
    "CITY": "CHICAGO",
    "STATE": "IL",
    "ZIP": 60626,
    "ENGINE": "E102",
    "LOCATION": "7340 N CLARK ST\nCHICAGO, IL 60626\n(42.014640160686284, -87.67502361090747)",
    "STAFF": 49,
    "Men": 41,
    "Women": 7
  },
  {
    "NAME": "E44",
    "ADDRESS": "412 N KEDZIE AVE",
    "CITY": "CHICAGO",
    "STATE": "IL",
    "ZIP": 60612,
    "ENGINE": "E44",
    "LOCATION": "412 N KEDZIE AVE\nCHICAGO, IL 60612\n(41.888791436564, -87.70657770924328)",
    "STAFF": 57,
    "Men": 48,
    "Women": 8
  },
  {
    "NAME": "E72",
    "ADDRESS": "7974 S SOUTH CHICAGO AVE",
    "CITY": "CHICAGO",
    "STATE": "IL",
    "ZIP": 60617,
    "ENGINE": "E72",
    "LOCATION": "7974 S SOUTH CHICAGO AVE\nCHICAGO, IL 60617\n(41.749827955664045, -87.58341162594515)",
    "STAFF": 92,
    "Men": 78,
    "Women": 13
  },
  {
    "NAME": "E121",
    "ADDRESS": "1724 W 95TH ST",
    "CITY": "CHICAGO",
    "STATE": "IL",
    "ZIP": 60643,
    "ENGINE": "E121",
    "LOCATION": "1724 W 95TH ST\nCHICAGO, IL 60643\n(41.72124683806391, -87.66576328672551)",
    "STAFF": 74,
    "Men": 62,
    "Women": 11
  },
  {
    "NAME": "E127",
    "ADDRESS": "5200 W 63RD ST",
    "CITY": "CHICAGO",
    "STATE": "IL",
    "ZIP": 60638,
    "ENGINE": "E127",
    "LOCATION": "5200 W 63RD ST\nCHICAGO, IL 60638\n(41.77750932865842, -87.75197548528234)",
    "STAFF": 43,
    "Men": 36,
    "Women": 6
  },
  {
    "NAME": "E89",
    "ADDRESS": "3945 W PETERSON AVE",
    "CITY": "CHICAGO",
    "STATE": "IL",
    "ZIP": 60659,
    "ENGINE": "E89",
    "LOCATION": "3945 W PETERSON AVE\nCHICAGO, IL 60659\n(41.990056658779615, -87.72568030374029)",
    "STAFF": 42,
    "Men": 35,
    "Women": 6
  },
  {
    "NAME": "E116",
    "ADDRESS": "5955 S ASHLAND AVE",
    "CITY": "CHICAGO",
    "STATE": "IL",
    "ZIP": 60636,
    "ENGINE": "E116",
    "LOCATION": "5955 S ASHLAND AVE\nCHICAGO, IL 60636\n(41.78569136830025, -87.66426233667036)",
    "STAFF": 57,
    "Men": 48,
    "Women": 8
  },
  {
    "NAME": "E32",
    "ADDRESS": "5559 S NARRAGANSETT AVE",
    "CITY": "CHICAGO",
    "STATE": "IL",
    "ZIP": 60638,
    "ENGINE": "E32",
    "LOCATION": "5559 S NARRAGANSETT AVE\nCHICAGO, IL 60638\n(41.79123564423197, -87.78169288573983)",
    "STAFF": 78,
    "Men": 66,
    "Women": 11
  },
  {
    "NAME": "E30",
    "ADDRESS": "1125 N ASHLAND AVE",
    "CITY": "CHICAGO",
    "STATE": "IL",
    "ZIP": 60622,
    "ENGINE": "E30",
    "LOCATION": "1125 N ASHLAND AVE\nCHICAGO, IL 60622\n(41.90220932124115, -87.66707948571641)",
    "STAFF": 98,
    "Men": 83,
    "Women": 14
  },
  {
    "NAME": "E11",
    "ADDRESS": "5343 N CUMBERLAND AVE",
    "CITY": "CHICAGO",
    "STATE": "IL",
    "ZIP": 60656,
    "ENGINE": "E11",
    "LOCATION": "5343 N CUMBERLAND AVE\nCHICAGO, IL 60656\n(41.97685625348317, -87.836495886321)",
    "STAFF": 48,
    "Men": 40,
    "Women": 7
  },
  {
    "NAME": "E23",
    "ADDRESS": "1915 S DAMEN AVE",
    "CITY": "CHICAGO",
    "STATE": "IL",
    "ZIP": 60608,
    "ENGINE": "E23",
    "LOCATION": "1915 S DAMEN AVE\nCHICAGO, IL 60608\n(41.85561895838222, -87.67592085764691)",
    "STAFF": 57,
    "Men": 48,
    "Women": 8
  },
  {
    "NAME": "E101",
    "ADDRESS": "2240 W 69TH ST",
    "CITY": "CHICAGO",
    "STATE": "IL",
    "ZIP": 60636,
    "ENGINE": "E101",
    "LOCATION": "2240 W 69TH ST\nCHICAGO, IL 60636\n(41.768394081407024, -87.67985164411793)",
    "STAFF": 76,
    "Men": 64,
    "Women": 11
  },
  {
    "NAME": "E68",
    "ADDRESS": "5258 W GRAND AVE",
    "CITY": "CHICAGO",
    "STATE": "IL",
    "ZIP": 60639,
    "ENGINE": "E68",
    "LOCATION": "5258 W GRAND AVE\nCHICAGO, IL 60639\n(41.91725086259721, -87.75747321069997)",
    "STAFF": 89,
    "Men": 75,
    "Women": 13
  },
  {
    "NAME": "E42",
    "ADDRESS": "55 W ILLINOIS ST",
    "CITY": "CHICAGO",
    "STATE": "IL",
    "ZIP": 60654,
    "ENGINE": "E42",
    "LOCATION": "55 W ILLINOIS ST\nCHICAGO, IL 60654\n(41.89080151108816, -87.63009284126726)",
    "STAFF": 57,
    "Men": 48,
    "Women": 8
  },
  {
    "NAME": "E104",
    "ADDRESS": "11641 S AVENUE O",
    "CITY": "CHICAGO",
    "STATE": "IL",
    "ZIP": 60617,
    "ENGINE": "E104",
    "LOCATION": "11641 S AVENUE O\nCHICAGO, IL 60617\n(41.68384838570316, -87.5400210564776)",
    "STAFF": 46,
    "Men": 39,
    "Women": 6
  },
  {
    "NAME": "E110",
    "ADDRESS": "2322 W FOSTER AVE",
    "CITY": "CHICAGO",
    "STATE": "IL",
    "ZIP": 60625,
    "ENGINE": "E110",
    "LOCATION": "2322 W FOSTER AVE\nCHICAGO, IL 60625\n(41.97593934922963, -87.6875836047776)",
    "STAFF": 42,
    "Men": 35,
    "Women": 6
  },
  {
    "NAME": "E56",
    "ADDRESS": "2214 W BARRY AVE",
    "CITY": "CHICAGO",
    "STATE": "IL",
    "ZIP": 60618,
    "ENGINE": "E56",
    "LOCATION": "2214 W BARRY AVE\nCHICAGO, IL 60618\n(41.93769629431298, -87.68576576945844)",
    "STAFF": 86,
    "Men": 73,
    "Women": 12
  },
  {
    "NAME": "E54",
    "ADDRESS": "7101 S PARNELL AVE",
    "CITY": "CHICAGO",
    "STATE": "IL",
    "ZIP": 60621,
    "ENGINE": "E54",
    "LOCATION": "7101 S PARNELL AVE\nCHICAGO, IL 60621\n(41.76525963399459, -87.63830544212665)",
    "STAFF": 57,
    "Men": 48,
    "Women": 8
  },
  {
    "NAME": "E94",
    "ADDRESS": "5758 W GRACE ST",
    "CITY": "CHICAGO",
    "STATE": "IL",
    "ZIP": 60634,
    "ENGINE": "E94",
    "LOCATION": "5758 W GRACE ST\nCHICAGO, IL 60634\n(41.949448311266025, -87.77069385620601)",
    "STAFF": 45,
    "Men": 38,
    "Women": 6
  },
  {
    "NAME": "E126",
    "ADDRESS": "7313 S KINGSTON AVE",
    "CITY": "CHICAGO",
    "STATE": "IL",
    "ZIP": 60649,
    "ENGINE": "E126",
    "LOCATION": "7313 S KINGSTON AVE\nCHICAGO, IL 60649\n(41.76239663139161, -87.56393561616461)",
    "STAFF": 47,
    "Men": 39,
    "Women": 7
  },
  {
    "NAME": "E29",
    "ADDRESS": "3509 S LOWE AVE",
    "CITY": "CHICAGO",
    "STATE": "IL",
    "ZIP": 60609,
    "ENGINE": "E29",
    "LOCATION": "3509 S LOWE AVE\nCHICAGO, IL 60609\n(41.83078516567415, -87.64213229262364)",
    "STAFF": 57,
    "Men": 48,
    "Women": 8
  },
  {
    "NAME": "E45",
    "ADDRESS": "4600 S COTTAGE GROVE AVE",
    "CITY": "CHICAGO",
    "STATE": "IL",
    "ZIP": 60653,
    "ENGINE": "E45",
    "LOCATION": "4600 S COTTAGE GROVE AVE\nCHICAGO, IL 60653\n(41.81134320681739, -87.60662556802056)",
    "STAFF": 88,
    "Men": 74,
    "Women": 13
  },
  {
    "NAME": "E119",
    "ADDRESS": "6030 N AVONDALE AVE",
    "CITY": "CHICAGO",
    "STATE": "IL",
    "ZIP": 60631,
    "ENGINE": "E119",
    "LOCATION": "6030 N AVONDALE AVE\nCHICAGO, IL 60631\n(41.99120656361649, -87.79879483457952)",
    "STAFF": 48,
    "Men": 40,
    "Women": 7
  },
  {
    "NAME": "E8",
    "ADDRESS": "212 W CERMAK RD",
    "CITY": "CHICAGO",
    "STATE": "IL",
    "ZIP": 60616,
    "ENGINE": "E8",
    "LOCATION": "212 W CERMAK RD\nCHICAGO, IL 60616\n(41.85313331810226, -87.63235666216515)",
    "STAFF": 57,
    "Men": 48,
    "Women": 8
  },
  {
    "NAME": "E74",
    "ADDRESS": "10615 S EWING AVE",
    "CITY": "CHICAGO",
    "STATE": "IL",
    "ZIP": 60617,
    "ENGINE": "E74",
    "LOCATION": "10615 S EWING AVE\nCHICAGO, IL 60617\n(41.702187603130206, -87.53522906326324)",
    "STAFF": 58,
    "Men": 49,
    "Women": 8
  },
  {
    "NAME": "E63",
    "ADDRESS": "1440 E 67TH ST",
    "CITY": "CHICAGO",
    "STATE": "IL",
    "ZIP": 60637,
    "ENGINE": "E63",
    "LOCATION": "1440 E 67TH ST\nCHICAGO, IL 60637\n(41.77330654417221, -87.59020200469239)",
    "STAFF": 55,
    "Men": 46,
    "Women": 8
  },
  {
    "NAME": "E26",
    "ADDRESS": "10 N LEAVITT ST",
    "CITY": "CHICAGO",
    "STATE": "IL",
    "ZIP": 60612,
    "ENGINE": "E26",
    "LOCATION": "10 N LEAVITT ST\nCHICAGO, IL 60612\n(41.88151592134697, -87.68185534665783)",
    "STAFF": 57,
    "Men": 48,
    "Women": 8
  },
  {
    "NAME": "E107",
    "ADDRESS": "1101 S CALIFORNIA AVE",
    "CITY": "CHICAGO",
    "STATE": "IL",
    "ZIP": 60612,
    "ENGINE": "E107",
    "LOCATION": "1101 S CALIFORNIA AVE\nCHICAGO, IL 60612\n(41.86810702989009, -87.6956239669264)",
    "STAFF": 55,
    "Men": 46,
    "Women": 8
  },
  {
    "NAME": "E98",
    "ADDRESS": "202 E CHICAGO AVE",
    "CITY": "CHICAGO",
    "STATE": "IL",
    "ZIP": 60611,
    "ENGINE": "E98",
    "LOCATION": "202 E CHICAGO AVE\nCHICAGO, IL 60611\n(41.89706519923356, -87.62259901814724)",
    "STAFF": 54,
    "Men": 45,
    "Women": 8
  },
  {
    "NAME": "E50",
    "ADDRESS": "5000 S UNION AVE",
    "CITY": "CHICAGO",
    "STATE": "IL",
    "ZIP": 60609,
    "ENGINE": "E50",
    "LOCATION": "5000 S UNION AVE\nCHICAGO, IL 60609\n(41.80344788181221, -87.64299386409898)",
    "STAFF": 53,
    "Men": 45,
    "Women": 7
  },
  {
    "NAME": "E76",
    "ADDRESS": "1747 N PULASKI RD",
    "CITY": "CHICAGO",
    "STATE": "IL",
    "ZIP": 60639,
    "ENGINE": "E76",
    "LOCATION": "1747 N PULASKI RD\nCHICAGO, IL 60639\n(41.912618217810966, -87.72638113254548)",
    "STAFF": 58,
    "Men": 49,
    "Women": 8
  },
  {
    "NAME": "E57",
    "ADDRESS": "1244 N WESTERN AVE",
    "CITY": "CHICAGO",
    "STATE": "IL",
    "ZIP": 60622,
    "ENGINE": "E57",
    "LOCATION": "1244 N WESTERN AVE\nCHICAGO, IL 60622\n(41.9038275429672, -87.68713245676875)",
    "STAFF": 59,
    "Men": 50,
    "Women": 8
  },
  {
    "NAME": "E65",
    "ADDRESS": "3002 W 42ND ST",
    "CITY": "CHICAGO",
    "STATE": "IL",
    "ZIP": 60632,
    "ENGINE": "E65",
    "LOCATION": "3002 W 42ND ST\nCHICAGO, IL 60632\n(41.8172974388628, -87.69950400664642)",
    "STAFF": 60,
    "Men": 51,
    "Women": 9
  },
  {
    "NAME": "E28",
    "ADDRESS": "2534 S THROOP ST",
    "CITY": "CHICAGO",
    "STATE": "IL",
    "ZIP": 60608,
    "ENGINE": "E28",
    "LOCATION": "2534 S THROOP ST\nCHICAGO, IL 60608\n(41.84557901305613, -87.65633258746628)",
    "STAFF": 70,
    "Men": 59,
    "Women": 10
  },
  {
    "NAME": "E96",
    "ADDRESS": "439 N WALLER AVE",
    "CITY": "CHICAGO",
    "STATE": "IL",
    "ZIP": 60644,
    "ENGINE": "E96",
    "LOCATION": "439 N WALLER AVE\nCHICAGO, IL 60644\n(41.88832430415244, -87.76761633819585)",
    "STAFF": 72,
    "Men": 61,
    "Women": 10
  },
  {
    "NAME": "E80",
    "ADDRESS": "12701 S DOTY AVE",
    "CITY": "CHICAGO",
    "STATE": "IL",
    "ZIP": 60633,
    "ENGINE": "E80",
    "LOCATION": "12701 S DOTY AVE\nCHICAGO, IL 60633\n(41.66260010624714, -87.59059746685327)",
    "STAFF": 64,
    "Men": 54,
    "Women": 9
  },
  {
    "NAME": "E7",
    "ADDRESS": "4911 W BELMONT AVE",
    "CITY": "CHICAGO",
    "STATE": "IL",
    "ZIP": 60641,
    "ENGINE": "E7",
    "LOCATION": "4911 W BELMONT AVE\nCHICAGO, IL 60641\n(41.9387854993556, -87.74963764827827)",
    "STAFF": 63,
    "Men": 53,
    "Women": 9
  },
  {
    "NAME": "E83",
    "ADDRESS": "1200 W WILSON AVE",
    "CITY": "CHICAGO",
    "STATE": "IL",
    "ZIP": 60640,
    "ENGINE": "E83",
    "LOCATION": "1200 W WILSON AVE\nCHICAGO, IL 60640\n(41.96563850396769, -87.65997484168496)",
    "STAFF": 62,
    "Men": 52,
    "Women": 9
  },
  {
    "NAME": "E123",
    "ADDRESS": "2215 W 51ST ST",
    "CITY": "CHICAGO",
    "STATE": "IL",
    "ZIP": 60609,
    "ENGINE": "E123",
    "LOCATION": "2215 W 51ST ST\nCHICAGO, IL 60609\n(41.801170483375124, -87.67986218548822)",
    "STAFF": 63,
    "Men": 53,
    "Women": 9
  },
  {
    "NAME": "E122",
    "ADDRESS": "101 E 79TH ST",
    "CITY": "CHICAGO",
    "STATE": "IL",
    "ZIP": 60619,
    "ENGINE": "E122",
    "LOCATION": "101 E 79TH ST\nCHICAGO, IL 60619\n(41.75098315968846, -87.62135205388734)",
    "STAFF": 67,
    "Men": 56,
    "Women": 10
  },
  {
    "NAME": "E93",
    "ADDRESS": "330 W 104TH ST",
    "CITY": "CHICAGO",
    "STATE": "IL",
    "ZIP": 60628,
    "ENGINE": "E93",
    "LOCATION": "330 W 104TH ST\nCHICAGO, IL 60628\n(41.7052439476399, -87.6324331863445)",
    "STAFF": 62,
    "Men": 52,
    "Women": 9
  },
  {
    "NAME": "E34",
    "ADDRESS": "4034 W 47TH ST",
    "CITY": "CHICAGO",
    "STATE": "IL",
    "ZIP": 60632,
    "ENGINE": "E34",
    "LOCATION": "4034 W 47TH ST\nCHICAGO, IL 60632\n(41.80790024096418, -87.72485128276466)",
    "STAFF": 87,
    "Men": 73,
    "Women": 13
  },
  {
    "NAME": "E14",
    "ADDRESS": "1129 W CHICAGO AVE",
    "CITY": "CHICAGO",
    "STATE": "IL",
    "ZIP": 60642,
    "ENGINE": "E14",
    "LOCATION": "1129 W CHICAGO AVE\nCHICAGO, IL 60642\n(41.895977019578105, -87.65622466882277)",
    "STAFF": 63,
    "Men": 53,
    "Women": 9
  },
  {
    "NAME": "E60",
    "ADDRESS": "1150 E 55TH ST",
    "CITY": "CHICAGO",
    "STATE": "IL",
    "ZIP": 60615,
    "ENGINE": "E60",
    "LOCATION": "1150 E 55TH ST\nCHICAGO, IL 60615\n(41.79515197581412, -87.59751892663527)",
    "STAFF": 61,
    "Men": 51,
    "Women": 9
  },
  {
    "NAME": "E129",
    "ADDRESS": "8120 S ASHLAND AVE",
    "CITY": "CHICAGO",
    "STATE": "IL",
    "ZIP": 60620,
    "ENGINE": "E129",
    "LOCATION": "8120 S ASHLAND AVE\nCHICAGO, IL 60620\n(41.746304611153825, -87.66346152532664)",
    "STAFF": 60,
    "Men": 51,
    "Women": 9
  },
  {
    "NAME": "E39",
    "ADDRESS": "1618 W 33RD PL",
    "CITY": "CHICAGO",
    "STATE": "IL",
    "ZIP": 60608,
    "ENGINE": "E39",
    "LOCATION": "1618 W 33RD PL\nCHICAGO, IL 60608\n(41.83346514532146, -87.66635103487269)",
    "STAFF": 62,
    "Men": 52,
    "Women": 9
  }
]